City_ID,City,Lat,Lng,Max Temp,Humidity,Cloudiness,Wind Speed,Country,Current Weather
0,Coihaique,-45.5752,-72.0662,59.61,47,40,9.22,CL,scattered clouds
1,Lagoa,39.05,-27.9833,58.14,70,38,25.77,PT,scattered clouds
2,Port Elizabeth,-33.918,25.5701,74.1,89,93,13.67,ZA,overcast clouds
3,Ribeira Grande,38.5167,-28.7,59.4,63,40,20.71,PT,scattered clouds
4,Vieste,41.8825,16.175,51.04,51,1,6.71,IT,clear sky
5,Clyde River,70.4692,-68.5914,-19.97,76,40,5.75,CA,scattered clouds
6,Kapaa,22.0752,-159.319,80.58,65,0,1.99,US,clear sky
7,Busselton,-33.65,115.3333,63.09,65,87,17.78,AU,overcast clouds
8,Mount Gambier,-37.8333,140.7667,62.51,94,100,8.05,AU,overcast clouds
9,Russkaya Polyana,49.417,31.9201,32.31,85,26,15.3,UA,scattered clouds
10,Kahului,20.8947,-156.47,79.86,66,4,18.01,US,clear sky
11,Guatire,10.4762,-66.5427,84.7,62,75,5.03,VE,broken clouds
12,San Patricio,28.017,-97.5169,72.32,50,28,11.65,US,scattered clouds
13,Tongzi,28.7829,105.0877,42.87,85,91,2.01,CN,overcast clouds
14,Leningradskiy,69.3833,178.4167,-12.53,94,98,2.95,RU,overcast clouds
15,Butaritari,3.0707,172.7902,81.81,76,18,21.03,KI,light rain
16,Kudahuvadhoo,2.6708,72.8944,81.54,77,28,11.92,MV,scattered clouds
17,Bluff,-46.6,168.3333,65.8,87,96,4.9,NZ,overcast clouds
18,Losevo,50.6767,40.045,32.41,97,100,16.96,RU,snow
19,Thinadhoo,0.5333,72.9333,81.64,73,75,10.94,MV,broken clouds
20,Bengkulu,-3.8004,102.2655,75.97,89,100,3.27,ID,moderate rain
21,Alofi,-19.0595,-169.9187,74.79,84,100,7.72,NU,moderate rain
22,Avarua,-21.2078,-159.775,73.45,88,75,5.75,CK,heavy intensity rain
23,Tezu,27.9167,96.1667,51.93,53,22,3.76,IN,few clouds
24,San Lazaro,18.0387,-88.6622,76.71,50,18,4.85,BZ,few clouds
25,Arraial Do Cabo,-22.9661,-42.0278,78.66,89,75,8.05,BR,broken clouds
26,Hobart,-42.8794,147.3294,59.22,90,75,5.75,AU,broken clouds
27,Cape Town,-33.9258,18.4232,68.11,77,0,4.0,ZA,clear sky
28,Ushuaia,-54.8,-68.3,47.86,61,75,33.38,AR,broken clouds
29,Hithadhoo,-0.6,73.0833,81.61,70,81,9.04,MV,broken clouds
30,Inuvik,68.3499,-133.7218,5.04,84,75,4.61,CA,light snow
31,Vicuna,-30.0319,-70.7081,80.76,43,0,9.04,CL,clear sky
32,Surt,31.2089,16.5887,56.23,60,7,13.87,LY,clear sky
33,Katsuura,35.1333,140.3,39.31,53,100,11.01,JP,overcast clouds
34,Hermanus,-34.4187,19.2345,70.81,85,100,13.65,ZA,overcast clouds
35,Asau,46.4333,26.4,39.4,69,99,20.96,RO,overcast clouds
36,Rikitea,-23.1203,-134.9692,76.33,69,100,4.56,PF,overcast clouds
37,Rorvik,64.8621,11.2373,30.31,74,75,6.91,NO,broken clouds
38,Turukhansk,65.8167,87.9833,-1.21,94,98,9.31,RU,overcast clouds
39,Cayenne,4.9333,-52.3333,78.84,89,75,1.99,GF,broken clouds
40,Castro,-24.7911,-50.0119,64.9,96,97,6.51,BR,overcast clouds
41,Ambilobe,-13.2,49.05,75.15,92,94,1.83,MG,overcast clouds
42,Mangrol,21.1167,70.1167,66.04,63,0,11.27,IN,clear sky
43,Tuktoyaktuk,69.4541,-133.0374,-4.36,96,100,17.47,CA,light snow
44,Olafsvik,64.8945,-23.7142,27.79,55,100,35.54,IS,snow
45,Puerto Del Rosario,28.5004,-13.8627,67.68,52,20,6.91,ES,few clouds
46,Albany,42.6001,-73.9662,21.81,38,13,3.0,US,few clouds
47,Yellowknife,62.456,-114.3525,-7.58,90,100,8.05,CA,light snow
48,Nikolskoye,59.7035,30.7861,27.39,95,100,6.73,RU,light snow
49,Punta Arenas,-53.15,-70.9167,53.71,47,40,32.21,CL,scattered clouds
50,Great Falls,47.5002,-111.3008,50.41,24,0,11.01,US,clear sky
51,Pevek,69.7008,170.3133,-12.42,95,100,2.48,RU,overcast clouds
52,Port Alfred,-33.5906,26.891,74.1,88,96,18.9,ZA,overcast clouds
53,Kruisfontein,-34.0033,24.7314,71.89,95,74,6.11,ZA,broken clouds
54,Barrow,71.2906,-156.7887,-7.58,71,100,9.22,US,light snow
55,Lang Suan,9.9456,99.0785,73.11,88,13,4.7,TH,few clouds
56,Saint-Joseph,-21.3667,55.6167,77.38,80,27,13.22,RE,scattered clouds
57,Mataura,-46.1927,168.8643,65.48,82,47,1.19,NZ,scattered clouds
58,Lebu,-37.6167,-73.65,61.3,64,0,19.46,CL,clear sky
59,Hilo,19.7297,-155.09,78.53,55,20,9.22,US,few clouds
60,Mount Isa,-20.7333,139.5,74.97,100,40,5.75,AU,scattered clouds
61,Atuona,-9.8,-139.0333,78.01,77,9,13.47,PF,clear sky
62,Bambous Virieux,-20.3428,57.7575,78.22,82,100,17.49,MU,light rain
63,Beringovskiy,63.05,179.3167,-9.47,100,100,8.95,RU,overcast clouds
64,La Macarena,2.1837,-73.7849,94.75,29,79,7.0,CO,broken clouds
65,Carballo,43.213,-8.691,51.22,76,0,0.2,ES,clear sky
66,Cap Malheureux,-19.9842,57.6142,78.48,81,100,3.0,MU,overcast clouds
67,Panguna,-6.3164,155.4848,71.47,92,100,1.59,PG,overcast clouds
68,Kuytun,54.3419,101.5036,-7.1,99,100,2.89,RU,overcast clouds
69,Agadez,19.75,10.25,57.85,15,0,12.01,NE,clear sky
70,Puerto Ayora,-0.7393,-90.3518,85.96,73,100,8.84,EC,overcast clouds
71,Puma,-5.0,34.7333,61.2,98,100,2.82,TZ,moderate rain
72,Ayan,56.45,138.1667,1.36,69,100,16.82,RU,overcast clouds
73,Tasiilaq,65.6145,-37.6368,6.96,45,95,17.18,GL,overcast clouds
74,Khonsa,27.0167,95.5667,45.82,86,44,2.57,IN,scattered clouds
75,Sisimiut,66.9395,-53.6735,5.25,95,100,16.62,GL,light snow
76,Geraldton,-28.7667,114.6,72.01,88,100,12.66,AU,overcast clouds
77,Kidal,18.4411,1.4078,71.42,13,77,11.54,ML,broken clouds
78,Pimentel,-6.8367,-79.9342,77.29,53,0,19.57,PE,clear sky
79,Taggia,43.8485,7.8545,56.16,87,1,5.06,IT,clear sky
80,Shache,38.4167,77.2406,29.71,41,100,2.06,CN,overcast clouds
81,Sri Aman,1.2376,111.4621,73.15,99,100,0.83,MY,overcast clouds
82,Cidreira,-30.1811,-50.2056,74.97,68,7,17.45,BR,clear sky
83,Kavieng,-2.5744,150.7967,80.98,76,86,1.99,PG,overcast clouds
84,Mount Darwin,-16.7725,31.5838,63.55,94,0,2.62,ZW,clear sky
85,Lompoc,34.6391,-120.4579,73.71,32,0,14.97,US,clear sky
86,Mount Pleasant,32.7941,-79.8626,51.94,43,0,1.99,US,clear sky
87,Qaanaaq,77.484,-69.3632,-7.91,67,100,6.64,GL,overcast clouds
88,Esperance,-33.8667,121.9,68.4,71,48,8.99,AU,scattered clouds
89,Kostino,58.9097,53.2691,-2.63,100,91,2.95,RU,overcast clouds
90,Vilhena,-12.7406,-60.1458,69.37,97,100,5.73,BR,moderate rain
91,Saint George,37.1041,-113.5841,63.07,18,0,1.01,US,clear sky
92,Yulara,-25.2406,130.9889,74.59,78,100,18.32,AU,overcast clouds
93,New Norfolk,-42.7826,147.0587,58.87,75,5,1.97,AU,clear sky
94,Pisco,-13.7,-76.2167,75.25,69,40,6.91,PE,scattered clouds
95,Mar Del Plata,-38.0023,-57.5575,68.02,92,100,20.0,AR,thunderstorm with heavy rain
96,Ilulissat,69.2167,-51.1,6.82,56,75,14.97,GL,broken clouds
97,Faya,18.3851,42.4509,55.92,86,11,4.43,SA,few clouds
98,Nuuk,64.1835,-51.7216,12.81,73,40,16.11,GL,scattered clouds
99,Marovoay,-16.1,46.6333,77.07,86,3,3.56,MG,clear sky
100,Provideniya,64.3833,-173.3,10.51,72,0,17.9,RU,clear sky
101,Torbay,47.6666,-52.7314,42.76,81,100,7.0,CA,overcast clouds
102,Nurota,40.5614,65.6886,32.09,76,8,6.58,UZ,clear sky
103,East London,-33.0153,27.9116,74.34,85,77,14.32,ZA,broken clouds
104,Kabo,7.6994,18.629,75.47,18,43,4.65,CF,scattered clouds
105,Thompson,55.7435,-97.8558,5.79,88,100,6.13,CA,overcast clouds
106,Kisangani,0.5167,25.2,73.09,41,100,0.4,CD,overcast clouds
107,Bredasdorp,-34.5322,20.0403,70.29,87,99,10.76,ZA,overcast clouds
108,Kaitangata,-46.2817,169.8464,67.93,77,17,2.26,NZ,few clouds
109,Palencia,42.4167,-4.5,40.82,50,0,4.03,ES,clear sky
110,Saskylakh,71.9167,114.0833,-17.91,100,100,2.46,RU,overcast clouds
111,Polson,47.6936,-114.1632,33.76,79,100,3.4,US,overcast clouds
112,Emba,48.8264,58.1442,22.26,92,100,13.6,KZ,overcast clouds
113,Yaan,7.3833,8.5667,80.96,12,100,8.28,NG,overcast clouds
114,Georgetown,5.4112,100.3354,81.9,86,20,0.0,MY,few clouds
115,Potenza,40.6443,15.8086,36.91,81,1,4.83,IT,clear sky
116,Alice Springs,-23.7,133.8833,72.95,100,100,11.5,AU,overcast clouds
117,Yumen,40.2833,97.2,14.65,44,100,6.6,CN,overcast clouds
118,Chinhoyi,-17.3667,30.2,63.64,95,73,4.14,ZW,broken clouds
119,Vanimo,-2.6741,141.3028,76.5,88,100,7.96,PG,overcast clouds
120,Hambantota,6.1241,81.1185,76.23,89,26,12.73,LK,scattered clouds
121,Seydi,39.4816,62.9137,36.3,67,26,9.89,TM,scattered clouds
122,Chuy,-33.6971,-53.4616,76.44,63,26,13.98,UY,scattered clouds
123,Panalingaan,8.7842,117.4231,77.83,86,5,3.78,PH,clear sky
124,Karratha,-20.7377,116.8463,82.47,63,63,19.28,AU,broken clouds
125,Carnarvon,-24.8667,113.6333,77.65,74,75,23.24,AU,broken clouds
126,Raglan,-37.8,174.8833,75.33,68,89,6.96,NZ,overcast clouds
127,Touros,-5.1989,-35.4608,83.3,74,21,12.84,BR,few clouds
128,Buchanan,5.8808,-10.0467,80.56,82,57,5.88,LR,broken clouds
129,Berdigestyakh,62.0989,126.6992,-15.0,99,100,4.21,RU,overcast clouds
130,Jamestown,42.097,-79.2353,21.02,54,100,5.01,US,overcast clouds
131,Port Blair,11.6667,92.75,71.71,71,51,7.92,IN,broken clouds
132,Puerto Escondido,15.85,-97.0667,83.23,69,20,4.61,MX,few clouds
133,Chilca,-12.5211,-76.7372,76.6,77,78,7.23,PE,broken clouds
134,Hamilton,39.1834,-84.5333,40.98,55,0,3.0,US,clear sky
135,Port Lincoln,-34.7333,135.8667,66.54,83,31,8.16,AU,scattered clouds
136,Fuerte Olimpo,-21.0415,-57.8738,97.39,31,32,9.04,PY,scattered clouds
137,San Quintin,30.4833,-115.95,64.11,48,0,8.05,MX,clear sky
138,Lincolnton,35.4737,-81.2545,51.35,33,0,11.99,US,clear sky
139,Chokurdakh,70.6333,147.9167,-30.15,92,17,2.53,RU,few clouds
140,Havoysund,70.9963,24.6622,32.23,62,92,14.16,NO,overcast clouds
141,Kodiak,57.79,-152.4072,26.11,68,0,12.66,US,clear sky
142,Rolla,37.9514,-91.7713,48.15,40,0,5.99,US,clear sky
143,Bayaguana,18.7564,-69.6362,87.35,57,88,7.29,DO,overcast clouds
144,Dikson,73.5069,80.5464,-2.78,93,100,20.98,RU,overcast clouds
145,Fortuna,40.5982,-124.1573,58.93,72,0,5.01,US,clear sky
146,Aden,12.7794,45.0367,76.82,70,23,12.59,YE,few clouds
147,Vaini,-21.2,-175.2,79.81,78,100,12.06,TO,light rain
148,Luis Correia,-2.8792,-41.6669,86.0,79,75,12.66,BR,light rain
149,Talcahuano,-36.7167,-73.1167,69.48,52,0,18.41,CL,clear sky
150,Honavar,14.2833,74.45,72.59,66,3,4.54,IN,clear sky
151,Culpeper,38.5004,-77.9664,34.41,49,100,3.0,US,overcast clouds
152,Klaksvik,62.2266,-6.589,36.52,97,100,34.96,FO,overcast clouds
153,Livingston,55.9029,-3.5226,42.8,76,0,20.71,GB,clear sky
154,Senneterre,48.3835,-77.2328,8.82,87,100,7.87,CA,overcast clouds
155,Coahuayana,18.7333,-103.6833,89.2,28,0,7.2,MX,clear sky
156,General Roca,-39.0333,-67.5833,83.62,12,6,25.95,AR,clear sky
157,Constitucion,-35.3333,-72.4167,67.8,65,7,20.07,CL,clear sky
158,Samarai,-10.6167,150.6667,81.03,77,100,8.88,PG,overcast clouds
159,Egvekinot,66.3167,-179.1667,-1.01,64,53,7.83,RU,broken clouds
160,Kangaatsiaq,68.3065,-53.4641,5.4,92,100,10.29,GL,light snow
161,Pangai,-19.8,-174.35,81.09,75,99,10.42,TO,light rain
162,Dingle,10.9995,122.6711,74.5,93,82,3.42,PH,broken clouds
163,Fare,-16.7,-151.0167,80.35,72,18,9.53,PF,few clouds
164,Sorland,67.667,12.6934,33.66,45,97,8.59,NO,overcast clouds
165,Copala,16.65,-98.9833,84.74,58,5,10.51,MX,clear sky
166,San-Pedro,4.7485,-6.6363,80.04,84,24,7.47,CI,few clouds
167,Boa Vista,2.8197,-60.6733,93.18,33,40,14.97,BR,scattered clouds
168,Monchegorsk,67.9397,32.8739,1.54,98,62,2.3,RU,broken clouds
169,Vestmannaeyjar,63.4427,-20.2734,31.55,62,100,39.03,IS,snow
170,Naze,28.3667,129.4833,52.29,68,89,19.39,JP,overcast clouds
171,Dzerzhinskoye,56.8344,95.2283,-12.08,100,57,2.53,RU,broken clouds
172,Honiara,-9.4333,159.95,80.46,84,100,2.01,SB,moderate rain
173,Chegem,43.2833,43.1333,6.06,77,11,15.41,RU,few clouds
174,Omboue,-1.5746,9.2618,78.94,83,100,4.68,GA,light rain
175,Shushtar,32.0455,48.8567,52.21,38,37,4.41,IR,scattered clouds
176,Tiksi,71.6872,128.8694,-18.0,100,95,4.45,RU,overcast clouds
177,Portland,45.5234,-122.6762,52.43,71,75,3.0,US,broken clouds
178,Namibe,-15.1961,12.1522,73.36,71,100,6.08,AO,overcast clouds
179,Christchurch,-43.5333,172.6333,71.33,68,21,1.99,NZ,few clouds
180,Tutoia,-2.7619,-42.2744,85.98,77,97,11.23,BR,overcast clouds
181,Faanui,-16.4833,-151.75,80.2,73,11,7.52,PF,light rain
182,Bo Phloi,14.3236,99.5161,66.49,69,15,4.97,TH,few clouds
183,Nortelandia,-14.4547,-56.8028,74.41,94,100,5.84,BR,light rain
184,Sitka,57.0531,-135.33,37.29,75,75,0.0,US,broken clouds
185,Moose Factory,51.2585,-80.6094,-2.22,65,75,9.22,CA,broken clouds
186,Port Macquarie,-31.4333,152.9167,74.89,85,10,4.07,AU,clear sky
187,Buala,-8.145,159.5921,81.34,81,100,4.68,SB,light rain
188,Aklavik,68.2191,-135.0107,0.14,96,100,4.94,CA,overcast clouds
189,Xining,36.6167,101.7667,9.01,71,42,1.7,CN,scattered clouds
190,Permet,40.2336,20.3517,41.27,68,0,4.25,AL,clear sky
191,Laguna,38.421,-121.4238,63.88,59,0,1.01,US,clear sky
192,Haines Junction,60.7522,-137.5108,8.08,92,98,2.89,CA,overcast clouds
193,Severo-Kurilsk,50.6789,156.125,27.55,94,100,12.75,RU,snow
194,Canutama,-6.5339,-64.3831,80.74,85,80,3.2,BR,broken clouds
195,Mwinilunga,-11.7358,24.4293,63.77,97,100,4.79,ZM,overcast clouds
196,Huanren,41.2647,125.3667,4.91,89,8,1.21,CN,clear sky
197,Podporozhye,60.9112,34.1706,21.36,95,100,7.74,RU,light snow
198,Nisia Floresta,-6.0911,-35.2086,83.21,77,16,9.71,BR,few clouds
199,Grindavik,63.8424,-22.4338,27.07,63,75,36.82,IS,light snow
200,Zhuhai,22.2769,113.5678,59.05,71,40,21.85,CN,scattered clouds
201,Mendoza,-32.8908,-68.8272,90.12,26,8,7.92,AR,clear sky
202,Tripoli,32.8752,13.1875,54.28,69,0,10.69,LY,clear sky
203,Itaituba,-4.2761,-55.9836,77.7,83,100,0.31,BR,overcast clouds
204,Ponta Do Sol,32.6667,-17.1,65.12,41,1,9.15,PT,clear sky
205,Bulgan,48.8125,103.5347,-9.53,89,4,3.94,MN,clear sky
206,Pozoblanco,38.3791,-4.8483,41.58,47,24,1.95,ES,few clouds
207,Nouadhibou,20.931,-17.0347,64.33,76,100,19.93,MR,overcast clouds
208,Buraydah,26.326,43.975,57.67,38,83,13.69,SA,broken clouds
209,Ngunguru,-35.6167,174.5,72.16,72,94,16.17,NZ,overcast clouds
210,Lerwick,60.1545,-1.1494,39.2,97,100,17.76,GB,overcast clouds
211,Tulsa,36.1001,-95.9003,62.49,22,0,1.01,US,clear sky
212,Sechura,-5.5569,-80.8222,78.98,61,68,15.14,PE,broken clouds
213,Elizabeth City,36.2946,-76.2511,39.02,38,0,5.75,US,clear sky
214,Savannah Bight,16.45,-85.85,72.0,65,88,14.29,HN,overcast clouds
215,Santo Domingo,18.5001,-69.9886,87.44,71,20,5.01,DO,few clouds
216,Necochea,-38.5473,-58.7368,70.03,67,85,19.39,AR,overcast clouds
217,Ler,8.3018,30.1418,76.62,21,96,5.46,SS,overcast clouds
218,Dunedin,-45.8742,170.5036,66.79,72,0,8.99,NZ,clear sky
219,Gigmoto,13.7796,124.39,76.86,88,45,8.93,PH,scattered clouds
220,Biak,-0.9131,122.8766,75.88,82,98,5.86,ID,overcast clouds
221,Bubaque,11.2833,-15.8333,78.13,70,42,13.42,GW,scattered clouds
222,Makat,47.6469,53.3463,30.79,94,100,9.86,KZ,overcast clouds
223,Tuy Hoa,13.0833,109.3,73.17,89,37,2.71,VN,scattered clouds
224,Waingapu,-9.6567,120.2641,78.13,83,100,10.45,ID,overcast clouds
225,Airai,-8.9266,125.4092,60.76,91,78,3.96,TL,broken clouds
226,Hofn,64.2539,-15.2082,26.11,50,0,23.24,IS,clear sky
227,San Miguelito,9.0333,-79.5,89.42,40,40,7.0,PA,scattered clouds
228,Cherskiy,68.75,161.3,-26.73,98,99,1.45,RU,overcast clouds
229,Yuanping,38.7153,112.7575,18.73,35,0,7.72,CN,clear sky
230,Abha,18.2164,42.5053,55.65,41,0,11.5,SA,clear sky
231,Chaozhou,23.6651,116.6379,48.79,73,28,4.0,CN,scattered clouds
232,Souillac,-20.5167,57.5167,78.37,85,100,15.37,MU,light rain
233,Norman Wells,65.282,-126.8329,-12.6,96,99,6.85,CA,overcast clouds
234,Kontagora,10.3999,5.4695,77.9,9,100,11.23,NG,overcast clouds
235,Taoudenni,22.6783,-3.9836,74.57,14,87,14.7,ML,overcast clouds
236,Upernavik,72.7868,-56.1549,-2.63,70,100,9.42,GL,overcast clouds
237,Chimbarongo,-34.7,-71.05,83.28,17,0,8.43,CL,clear sky
238,Cervo,43.6702,-7.4101,49.33,85,44,11.16,ES,scattered clouds
239,Aberdeen,57.1437,-2.0981,45.09,72,75,18.41,GB,broken clouds
240,Komsomolskiy,40.4272,71.7189,31.42,60,100,2.75,UZ,overcast clouds
241,Alyangula,-13.8483,136.4192,82.17,77,100,19.66,AU,overcast clouds
242,Mao,39.8885,4.2658,48.76,87,0,6.91,ES,clear sky
243,Bambui,-20.0064,-45.9769,73.56,85,100,3.65,BR,heavy intensity rain
244,Demba,-5.51,22.2667,69.24,84,93,3.02,CD,overcast clouds
245,Murray Bridge,-35.1167,139.2667,72.32,83,1,3.24,AU,clear sky
246,Port-Gentil,-0.7193,8.7815,81.32,80,91,8.55,GA,overcast clouds
247,Yarada,17.65,83.2667,71.44,73,1,2.93,IN,clear sky
248,Comodoro Rivadavia,-45.8667,-67.5,62.46,34,40,11.5,AR,scattered clouds
249,Provost,52.3501,-110.2683,32.49,89,64,3.51,CA,broken clouds
250,Cedar Falls,42.5278,-92.4455,23.58,68,100,1.01,US,overcast clouds
251,Fuyu,45.1833,124.8167,-7.4,100,6,1.32,CN,clear sky
252,Dolores,-36.3132,-57.6792,82.99,49,49,8.7,AR,scattered clouds
253,Shimoda,34.6667,138.95,36.1,65,98,8.3,JP,overcast clouds
254,Shingu,33.7333,135.9833,35.31,79,56,7.0,JP,broken clouds
255,Kieta,-6.2167,155.6333,80.71,84,100,6.46,PG,overcast clouds
256,Cizre,37.3272,42.1903,36.34,77,25,4.83,TR,scattered clouds
257,Creel,27.75,-107.6333,52.83,34,67,22.68,MX,broken clouds
258,Saint-Philippe,-21.3585,55.7679,78.39,81,48,12.24,RE,scattered clouds
259,Putina,-15.4667,-69.4333,52.27,68,83,9.98,PE,broken clouds
260,Muros,42.7762,-9.0603,52.84,63,0,3.98,ES,clear sky
261,Roald,62.5833,6.1333,33.33,86,75,9.22,NO,broken clouds
262,Gizo,-8.103,156.8419,82.96,76,100,8.66,SB,light rain
263,Kamenka,51.3223,42.7678,26.74,94,100,13.09,RU,overcast clouds
264,Peniche,39.3558,-9.3811,58.08,65,21,6.31,PT,few clouds
265,Mercedes,-34.6515,-59.4307,88.86,28,1,6.04,AR,clear sky
266,Nanortalik,60.1432,-45.2371,17.19,81,100,16.33,GL,light snow
267,Kurumkan,54.3,110.3,-16.98,95,82,3.49,RU,broken clouds
268,Tigil,57.8,158.6667,31.62,67,100,29.1,RU,overcast clouds
269,Ballina,-28.8667,153.5667,73.44,98,63,7.52,AU,broken clouds
270,Havre-Saint-Pierre,50.2334,-63.5986,8.96,78,100,16.11,CA,overcast clouds
271,Bethel,41.3712,-73.414,25.68,45,0,1.01,US,clear sky
272,Iqaluit,63.7506,-68.5145,-23.91,97,91,4.68,CA,overcast clouds
273,Minna,9.6139,6.5569,79.99,9,97,12.24,NG,overcast clouds
274,Gat,31.61,34.7642,50.4,100,0,4.65,IL,clear sky
275,Los Llanos De Aridane,28.6585,-17.9182,60.55,78,7,7.0,ES,clear sky
276,Guerrero Negro,27.9769,-114.0611,65.34,52,100,15.03,MX,overcast clouds
277,Sao Joao Da Barra,-21.6403,-41.0511,84.29,88,6,10.4,BR,clear sky
278,Mujiayingzi,42.1167,118.7833,17.42,82,100,5.19,CN,light snow
279,San Cristobal,7.7669,-72.225,71.78,57,95,4.81,VE,light rain
280,Erzin,36.9559,36.2,45.12,80,83,5.91,TR,broken clouds
281,Aban,56.67,96.06,-12.41,100,77,2.46,RU,broken clouds
282,Fairbanks,64.8378,-147.7164,-18.4,72,0,0.0,US,clear sky
283,Half Moon Bay,37.4636,-122.4286,65.73,75,0,1.99,US,clear sky
284,Gore,-46.1028,168.9436,65.23,82,63,0.69,NZ,broken clouds
285,Khoy,38.5504,44.9535,16.75,78,34,5.93,IR,scattered clouds
286,Sorong,-0.8833,131.25,81.1,77,100,10.49,ID,overcast clouds
287,Caravelas,-17.7125,-39.2481,80.37,81,11,11.86,BR,few clouds
288,Peleduy,59.6289,112.7406,-4.92,98,100,3.38,RU,overcast clouds
289,Shelton,41.3165,-73.0932,26.96,47,0,1.01,US,clear sky
290,Dores Do Indaia,-19.4633,-45.6017,74.16,85,98,4.68,BR,overcast clouds
291,Kimbe,-5.5502,150.1429,77.14,93,100,1.05,PG,overcast clouds
292,Srednekolymsk,67.45,153.6833,-25.56,99,100,4.18,RU,overcast clouds
293,Saldanha,-33.0117,17.9442,65.5,91,99,9.57,ZA,overcast clouds
294,Krasnoselkup,65.7,82.4667,0.73,95,98,7.92,RU,overcast clouds
295,Beyneu,45.3167,55.2,33.03,80,100,15.99,KZ,overcast clouds
296,Inhambane,-23.865,35.3833,75.16,81,88,8.1,MZ,overcast clouds
297,Olinda,-8.0089,-34.8553,83.93,70,40,9.22,BR,scattered clouds
298,Khatanga,71.9667,102.5,-6.81,98,99,9.93,RU,overcast clouds
299,Bilibino,68.0546,166.4372,-12.51,95,72,5.39,RU,broken clouds
300,Redmond,47.674,-122.1215,56.32,82,100,4.0,US,overcast clouds
301,Waipawa,-41.4122,175.5153,67.3,73,75,6.93,NZ,broken clouds
302,Miles City,46.4083,-105.8406,48.51,49,100,8.05,US,overcast clouds
303,Cascais,38.6979,-9.4215,58.05,39,0,5.01,PT,clear sky
304,Zmeinogorsk,51.1567,82.195,10.99,94,97,5.88,RU,overcast clouds
305,Shaping,22.7545,112.9565,51.94,44,99,8.84,CN,overcast clouds
306,Paita,-5.0892,-81.1144,79.36,70,78,15.43,PE,broken clouds
307,Hirado,33.3597,129.5531,43.36,47,5,14.34,JP,clear sky
308,Manta,-0.95,-80.7333,76.78,83,100,4.61,EC,overcast clouds
309,Bonavista,48.6499,-53.1147,41.11,70,100,35.57,CA,overcast clouds
310,Cockburn Town,21.4612,-71.1419,74.84,74,89,20.89,TC,overcast clouds
311,Santo Augusto,-27.8508,-53.7772,86.07,34,41,7.09,BR,scattered clouds
312,San Andres,12.5847,-81.7006,82.42,69,75,10.36,CO,broken clouds
313,Husavik,66.0449,-17.3389,22.62,63,47,30.13,IS,scattered clouds
314,Lakes Entrance,-37.8811,147.981,68.58,95,55,3.04,AU,broken clouds
315,Corpus Christi,27.8006,-97.3964,72.3,66,100,5.99,US,overcast clouds
316,Kikwit,-5.041,18.8162,76.35,71,100,0.89,CD,overcast clouds
317,Gijon,43.5357,-5.6615,47.44,91,19,4.47,ES,few clouds
318,Cabo San Lucas,22.8909,-109.9124,80.91,55,20,1.01,MX,few clouds
319,Varkkallai,8.7341,76.7067,80.38,84,5,3.58,IN,clear sky
320,Borovskoy,53.8,64.15,1.72,97,62,6.87,KZ,broken clouds
321,Vao,-22.6667,167.4833,79.02,86,100,5.75,NC,overcast clouds
322,Shaki,41.0833,47.1667,36.39,49,15,4.0,AZ,few clouds
323,Westport,41.1415,-73.3579,27.05,42,0,3.0,US,clear sky
324,Sao Filipe,14.8961,-24.4956,71.42,73,100,12.8,CV,overcast clouds
325,Aldan,58.6031,125.3894,-13.52,99,100,3.38,RU,overcast clouds
326,Koutiala,12.3917,-5.4642,80.49,11,17,9.31,ML,few clouds
327,Calbuco,-41.768,-73.1273,63.61,51,91,2.71,CL,overcast clouds
328,Zalantun,48.0,122.7167,-5.28,87,3,7.2,CN,clear sky
329,Yenagoa,4.9247,6.2642,75.76,60,65,4.38,NG,broken clouds
330,Waitati,-45.75,170.5667,66.79,72,0,4.34,NZ,clear sky
331,Coquimbo,-29.9533,-71.3436,67.73,72,0,12.66,CL,clear sky
332,Balotra,25.8333,72.2333,63.27,60,0,8.48,IN,clear sky
333,Banda Aceh,5.5577,95.3222,76.53,84,70,7.0,ID,broken clouds
334,Ouesso,1.6136,16.0517,73.27,29,100,1.61,CG,overcast clouds
335,Ramhormoz,31.28,49.6035,53.94,35,70,5.64,IR,broken clouds
336,Crestview,30.7621,-86.5705,63.14,38,0,8.99,US,clear sky
337,Kawalu,-7.3817,108.2082,72.5,95,100,2.89,ID,overcast clouds
338,Quelimane,-17.8786,36.8883,75.06,85,4,3.09,MZ,clear sky
339,Remedios,22.4947,-79.5458,65.32,51,24,12.44,CU,few clouds
340,Galanesti,47.9167,25.8,39.22,82,100,17.92,RO,overcast clouds
341,Ishigaki,24.3448,124.1572,63.14,63,15,27.56,JP,few clouds
342,Wukari,7.85,9.7833,78.62,14,72,8.57,NG,broken clouds
343,Nantucket,41.2835,-70.0995,24.91,57,20,9.22,US,few clouds
344,Salalah,17.0151,54.0924,69.89,73,0,3.44,OM,clear sky
345,Phan Thiet,10.9333,108.1,73.33,85,92,7.83,VN,overcast clouds
346,Port Hedland,-20.3167,118.5667,82.45,78,91,11.5,AU,overcast clouds
347,Oranjemund,-28.55,16.4333,66.24,87,72,3.38,NA,broken clouds
348,Cabadiangan,9.7531,122.4739,76.19,83,7,3.02,PH,clear sky
349,Atar,20.5169,-13.0499,81.16,11,100,7.94,MR,overcast clouds
350,Clarence Town,-32.5833,151.7833,74.8,76,79,0.74,AU,broken clouds
351,Itarema,-2.9248,-39.9167,77.02,83,100,8.93,BR,overcast clouds
352,Roebourne,-20.7833,117.1333,84.7,56,64,17.63,AU,broken clouds
353,Antofagasta,-23.65,-70.4,72.21,62,15,10.11,CL,few clouds
354,Pau Brasil,-15.4642,-39.6511,78.71,76,64,4.16,BR,broken clouds
355,Ulaangom,49.9811,92.0667,-25.4,92,90,3.42,MN,overcast clouds
356,Salinas,36.6777,-121.6555,68.99,49,0,5.75,US,clear sky
357,Sulangan,11.1373,123.7228,81.19,76,63,4.38,PH,broken clouds
358,Touba,8.2833,-7.6833,79.29,15,40,2.91,CI,scattered clouds
359,Zverinogolovskoye,54.4586,64.8542,3.58,96,100,5.21,RU,overcast clouds
360,Malpe,13.35,74.7167,78.1,74,4,5.64,IN,clear sky
361,Ohangaron,40.9064,69.6383,32.14,59,38,3.83,UZ,scattered clouds
362,Todos Santos,23.45,-110.2167,80.4,60,70,11.68,MX,broken clouds
363,Ordubad,38.9059,46.0234,26.69,77,20,4.36,AZ,few clouds
364,Vaitape,-16.5167,-151.75,80.22,73,11,7.45,PF,few clouds
365,Birin,26.8865,88.0718,40.71,74,24,4.07,NP,few clouds
366,Khammam,17.25,80.15,64.29,28,0,3.71,IN,clear sky
367,Minot,48.2325,-101.2963,34.79,60,0,12.66,US,clear sky
368,Luderitz,-26.6481,15.1594,66.11,85,89,8.28,NA,overcast clouds
369,Fort Nelson,58.8053,-122.7002,0.99,71,100,10.36,CA,light snow
370,Vila Franca Do Campo,37.7167,-25.4333,57.2,79,55,14.79,PT,broken clouds
371,Moorhead,46.8739,-96.7676,17.47,80,0,8.01,US,clear sky
372,Qasigiannguit,68.8193,-51.1922,7.05,74,100,8.75,GL,overcast clouds
373,Pangnirtung,66.1451,-65.7125,-19.34,84,95,4.97,CA,overcast clouds
374,Zlitan,32.4674,14.5687,55.76,68,1,14.61,LY,clear sky
375,Valdivia,-39.8142,-73.2459,68.09,46,27,5.53,CL,scattered clouds
376,Imeni Poliny Osipenko,52.4201,136.4853,-6.75,99,100,4.92,RU,light snow
377,Takapau,-40.0333,176.35,70.18,64,87,5.03,NZ,overcast clouds
378,Nelson Bay,-32.7167,152.15,74.95,95,83,1.01,AU,broken clouds
379,Okhotsk,59.3833,143.3,14.16,73,100,18.72,RU,overcast clouds
380,La Ronge,55.1001,-105.2842,14.95,92,100,5.32,CA,overcast clouds
381,Japura,-0.3167,102.35,73.08,99,31,1.34,ID,scattered clouds
382,Mackay,-21.15,149.2,80.69,81,37,9.57,AU,scattered clouds
383,Gobabis,-22.45,18.9667,67.82,81,80,11.61,NA,light rain
384,The Valley,18.217,-63.0578,82.26,69,20,11.5,AI,few clouds
385,Warkworth,-36.4,174.6667,73.42,68,89,15.08,NZ,overcast clouds
386,Aksarka,66.5606,67.7975,-12.71,100,81,4.61,RU,broken clouds
387,Forbes,-33.3833,148.0167,78.93,73,1,3.29,AU,clear sky
388,Mobaye,4.319,21.1786,74.44,26,32,1.57,CF,scattered clouds
389,Saint-Georges,12.0564,-61.7485,77.63,77,65,13.51,GD,broken clouds
390,Flinders,-34.5833,150.8552,75.06,85,21,5.99,AU,few clouds
391,Providencia,28.7167,-111.5833,78.85,27,28,11.18,MX,scattered clouds
392,Bull Savanna,17.8868,-77.5902,73.2,73,66,10.87,JM,broken clouds
393,Littleton,39.6133,-105.0166,60.44,20,20,5.75,US,few clouds
394,Victoria,22.2855,114.1577,59.32,77,82,1.01,HK,broken clouds
395,Baijiantan,45.6333,85.1833,5.07,95,100,1.7,CN,overcast clouds
396,Kamphaeng Phet,16.25,99.5,67.48,44,7,2.01,TH,clear sky
397,Toro,4.6117,-76.0814,83.48,78,99,5.01,CO,overcast clouds
398,Lorengau,-2.0226,147.2712,78.3,87,100,12.01,PG,overcast clouds
399,Baruun-Urt,46.6806,113.2792,-6.65,95,92,4.97,MN,overcast clouds
400,Praya,14.9215,-23.5087,70.34,68,75,19.57,CV,broken clouds
401,Taltal,-25.4,-70.4833,68.32,72,32,7.74,CL,scattered clouds
402,Dori,14.0354,-0.0345,74.82,12,31,11.41,BF,scattered clouds
403,Alugan,12.2188,125.4808,77.72,84,21,0.34,PH,few clouds
404,Kushiro,42.975,144.3747,8.31,81,4,6.4,JP,clear sky
405,Isangel,-19.55,169.2667,77.54,94,100,10.13,VU,overcast clouds
406,Catamarca,-28.4696,-65.7852,92.77,41,11,3.0,AR,few clouds
407,Berbera,10.4396,45.0143,74.08,66,32,7.94,SO,scattered clouds
408,Buarcos,40.166,-8.8768,46.78,58,88,5.61,PT,overcast clouds
409,Kaihua,23.3687,104.28,47.17,95,100,4.16,CN,overcast clouds
410,Uige,-7.6087,15.0613,66.94,97,100,0.4,AO,light rain
411,Rumonge,-3.9736,29.4386,70.38,90,100,0.76,BI,light rain
412,Kentville,45.0835,-64.4988,25.41,83,100,15.37,CA,overcast clouds
413,Milkovo,54.7167,158.6167,8.87,92,100,0.65,RU,overcast clouds
414,Gambela,8.25,34.5833,85.8,26,88,3.74,ET,overcast clouds
415,Auki,-8.7676,160.7034,79.68,84,100,2.71,SB,overcast clouds
416,Ewa Beach,21.3156,-158.0072,79.02,55,20,13.0,US,few clouds
417,Campbeltown,55.4258,-5.6076,44.65,74,86,39.5,GB,overcast clouds
418,Arman,59.7,150.1667,4.32,78,100,13.89,RU,overcast clouds
419,Port Hardy,50.6996,-127.4199,42.76,93,100,10.36,CA,light rain
420,Tirumullaivasal,11.2333,79.8333,76.35,81,21,9.22,IN,few clouds
421,Richards Bay,-28.783,32.0377,71.46,86,98,6.29,ZA,overcast clouds
422,Mareeba,-17.0,145.4333,74.12,95,100,1.9,AU,overcast clouds
423,Fortuna Foothills,32.6578,-114.4119,73.69,10,0,3.0,US,clear sky
424,Rochegda,62.8,43.25,3.69,97,96,4.74,RU,overcast clouds
425,Ambon,-3.6954,128.1814,84.34,70,40,17.27,ID,scattered clouds
426,Wellington,-41.2866,174.7756,71.76,71,8,1.01,NZ,clear sky
427,Adrar,20.5022,-10.0711,77.56,12,100,10.16,MR,overcast clouds
428,Ketchikan,55.3422,-131.6461,37.87,81,75,8.05,US,broken clouds
429,Bemidji,47.4736,-94.8803,23.18,61,0,5.75,US,clear sky
430,Burns Lake,54.2331,-125.7533,35.02,91,86,3.24,CA,overcast clouds
431,Khanpur,28.6453,70.6567,61.14,27,0,5.21,PK,clear sky
432,Chaoyang,41.5703,120.4586,20.71,61,100,2.62,CN,overcast clouds
433,Anadyr,64.75,177.4833,-19.52,75,20,2.24,RU,fog
434,Zhanaozen,43.3,52.8,38.88,86,100,12.88,KZ,overcast clouds
435,Riyadh,24.6877,46.7219,55.54,42,0,11.86,SA,clear sky
436,Vardo,70.3705,31.1107,28.15,93,40,10.36,NO,scattered clouds
437,Aqtobe,50.2797,57.2072,26.69,86,100,17.9,KZ,overcast clouds
438,Matay,28.419,30.7792,51.53,42,4,7.61,EG,clear sky
439,Sutton,51.35,-0.2,44.85,81,40,10.0,GB,scattered clouds
440,Bacarra,18.2529,120.6125,67.86,94,20,0.0,PH,few clouds
441,Nome,64.5011,-165.4064,-6.84,70,0,0.0,US,clear sky
442,Meulaboh,4.1363,96.1285,76.96,86,85,3.09,ID,overcast clouds
443,Madang,-5.2246,145.7966,75.27,92,100,8.81,PG,overcast clouds
444,Channel-Port Aux Basques,47.5702,-59.1367,25.75,79,100,32.61,CA,light snow
445,Novaya Bryan,51.7159,108.2691,-26.63,100,92,1.99,RU,overcast clouds
446,Prince Rupert,54.3161,-130.3201,38.89,81,100,6.91,CA,overcast clouds
447,Trelew,-43.249,-65.3051,60.46,36,95,20.78,AR,overcast clouds
448,Tiarei,-17.5333,-149.3333,84.22,75,93,11.25,PF,light rain
449,Karasjok,69.4719,25.5112,5.11,99,20,3.11,NO,few clouds
450,Igrim,63.1906,64.4162,-9.35,100,93,2.04,RU,overcast clouds
451,Katherine,-14.4667,132.2667,79.12,78,71,11.5,AU,broken clouds
452,Markova,48.6758,24.4138,35.19,82,100,17.4,UA,light snow
453,Chapais,49.7834,-74.8492,1.18,89,100,8.63,CA,overcast clouds
454,Hasaki,35.7333,140.8333,28.8,49,100,16.6,JP,overcast clouds
455,Botwood,49.1499,-55.3482,35.08,74,94,23.53,CA,overcast clouds
456,Rocha,-34.4833,-54.3333,79.25,55,0,10.51,UY,clear sky
457,Hobyo,5.3505,48.5268,76.68,78,93,17.11,SO,light rain
458,Phulji,26.8825,67.6807,63.36,36,0,4.36,PK,clear sky
459,Bindura,-17.3019,31.3306,62.56,96,0,2.37,ZW,clear sky
460,Lata,40.1629,-8.3327,49.71,50,99,2.89,PT,overcast clouds
461,Linhai,28.85,121.1167,36.93,74,6,2.42,CN,clear sky
462,Benalla,-36.55,145.9833,73.58,78,4,6.89,AU,clear sky
463,Warmbad,-28.45,18.7333,79.03,49,99,7.7,NA,light rain
464,Koungou,-12.7336,45.2042,80.31,78,0,3.44,YT,clear sky
465,Labuhan,-6.8844,112.2051,78.39,86,100,7.9,ID,overcast clouds
466,Mayumba,-3.432,10.6554,77.76,87,98,2.35,GA,overcast clouds
467,Verkhoyansk,67.5447,133.385,-35.52,100,97,1.28,RU,overcast clouds
468,Xuanhua,40.6103,115.0447,16.9,50,39,13.29,CN,scattered clouds
469,Cairns,-16.9167,145.7667,78.06,97,75,0.0,AU,broken clouds
470,Prieska,-29.6641,22.7474,73.06,56,98,13.35,ZA,overcast clouds
471,Rio Gallegos,-51.6226,-69.2181,57.25,30,40,33.38,AR,scattered clouds
472,Lavrentiya,65.5833,-171.0,-5.94,90,3,4.76,RU,clear sky
473,Cotacachi,0.3,-78.2667,63.95,88,100,5.03,EC,light rain
474,Baherden,38.4362,57.4316,43.02,52,2,7.09,TM,clear sky
475,Broome,42.2506,-75.833,23.02,60,100,1.99,US,overcast clouds
476,Khuzdar,27.7384,66.6434,55.31,38,0,4.81,PK,clear sky
477,Sazonovo,59.0919,35.2268,21.33,94,100,8.81,RU,light snow
478,Cabedelo,-6.9811,-34.8339,83.07,72,17,12.33,BR,few clouds
479,Puri,19.8,85.85,59.52,60,0,4.32,IN,clear sky
480,Ruteng,-8.6136,120.4721,62.8,94,100,2.48,ID,overcast clouds
481,Bramsche,52.4,7.9833,38.79,71,93,6.96,DE,overcast clouds
482,Muzhi,65.3667,64.6667,-13.47,100,98,2.37,RU,overcast clouds
483,Kuala Kedah,6.1,100.3,80.58,100,20,1.14,MY,few clouds
484,Tak Bai,6.2595,102.0546,73.38,90,77,5.55,TH,broken clouds
485,Naron,43.5167,-8.1528,49.01,79,0,5.21,ES,clear sky
486,Anloga,5.7947,0.8973,80.29,69,100,8.03,GH,overcast clouds
487,Mezen,65.8522,44.24,9.93,96,100,6.38,RU,overcast clouds
488,Grenfell,-33.9,148.1667,71.02,74,0,3.87,AU,clear sky
489,Champerico,14.3,-91.9167,91.94,64,3,10.69,GT,clear sky
490,Kita,13.0349,-9.4895,81.09,12,62,5.48,ML,broken clouds
491,Sohag,26.557,31.6948,51.49,45,22,6.98,EG,few clouds
492,Minsk Mazowiecki,52.1794,21.5725,37.42,88,100,24.63,PL,snow
493,Belokurikha,51.9959,84.9896,9.55,83,79,5.59,RU,broken clouds
494,Pauini,-7.7136,-66.9764,82.33,81,60,2.62,BR,broken clouds
495,Barabai,-2.5833,115.3833,73.98,91,99,1.16,ID,overcast clouds
496,Yilan,24.757,121.753,57.9,85,100,2.98,TW,overcast clouds
497,Alexandria,31.2156,29.9553,52.79,56,58,11.65,EG,broken clouds
498,Ferrol,43.4832,-8.2369,50.25,79,0,3.83,ES,clear sky
499,Opelousas,30.5335,-92.0815,66.88,34,0,10.36,US,clear sky
500,Tura,25.5198,90.2201,52.2,59,3,3.36,IN,clear sky
501,Hovd,48.0056,91.6419,-13.74,82,24,1.88,MN,few clouds
502,Antalaha,-14.9003,50.2788,75.65,87,14,7.96,MG,few clouds
503,Ca Mau,9.1769,105.15,73.74,91,19,4.79,VN,few clouds
504,Bom Jesus Do Galho,-19.8289,-42.3161,70.39,85,49,0.94,BR,moderate rain
505,Axim,4.8699,-2.2405,79.39,85,98,6.31,GH,overcast clouds
506,Monrovia,6.3005,-10.7969,78.57,84,16,7.63,LR,few clouds
507,Jijiga,9.35,42.8,58.28,33,62,8.46,ET,broken clouds
508,College,64.8569,-147.8028,-9.09,74,40,0.0,US,scattered clouds
509,Voh,-20.9667,164.7,80.33,77,100,3.15,NC,overcast clouds
510,Stornoway,58.2093,-6.3865,41.04,87,75,8.01,GB,broken clouds
511,Bafoulabe,13.8065,-10.8321,86.85,10,7,6.33,ML,clear sky
512,Byron Bay,-28.65,153.6167,78.06,89,88,8.23,AU,overcast clouds
513,San Mateo Del Mar,16.2,-95.0,78.55,57,2,32.79,MX,clear sky
514,Roma,43.2128,-75.4557,22.82,42,20,6.91,US,few clouds
515,Asfi,32.2994,-9.2372,62.73,52,19,8.99,MA,few clouds
516,Umm Lajj,25.0213,37.2685,65.14,59,89,8.97,SA,overcast clouds
517,Soe,-9.8607,124.284,67.06,86,70,8.01,ID,broken clouds
518,San Jeronimo,-11.9472,-75.2829,50.58,85,100,2.08,PE,overcast clouds
519,Loandjili,-4.7561,11.8578,78.75,86,100,5.3,CG,overcast clouds
520,Zapolyarnyy,69.4154,30.8136,15.08,98,67,6.33,RU,light snow
521,Vostok,46.4856,135.8833,-22.16,99,68,3.42,RU,broken clouds
522,North Bend,43.4065,-124.2243,56.25,87,75,14.97,US,broken clouds
523,Halifax,44.6453,-63.5724,24.22,73,93,5.01,CA,overcast clouds
524,Santa Maria,-29.6842,-53.8069,83.71,47,42,8.86,BR,scattered clouds
525,Usakos,-22.0,15.6,68.81,67,100,9.13,NA,overcast clouds
526,La Orilla,17.9833,-102.2333,83.79,50,0,9.86,MX,clear sky
527,Banjar,-8.19,114.9675,76.91,91,100,3.02,ID,overcast clouds
528,Hervey Bay,-25.2986,152.8535,78.04,84,21,9.53,AU,few clouds
529,Teberda,43.4456,41.7448,19.18,88,47,11.34,RU,light snow
530,Lahat,-3.8,103.5333,72.09,98,100,2.59,ID,moderate rain
531,Whitehorse,60.7161,-135.0538,8.1,69,75,8.99,CA,light snow
532,Kemijarvi,66.7131,27.4306,-1.44,99,100,2.59,FI,overcast clouds
533,Conchas,-23.0153,-48.0106,66.11,98,100,6.53,BR,overcast clouds
534,Raymond,43.9015,-70.4703,20.19,61,38,4.38,US,scattered clouds
535,Ostrovnoy,68.0531,39.5131,12.61,93,99,8.19,RU,overcast clouds
536,Rottingdean,50.8098,-0.0594,46.18,86,100,13.0,GB,overcast clouds
537,Goshen,41.5823,-85.8344,31.3,61,0,5.75,US,clear sky
538,Puerto Ayacucho,5.6639,-67.6236,94.98,23,89,11.72,VE,overcast clouds
539,Chadiza,-14.0678,32.4392,63.1,97,8,1.28,ZM,clear sky
540,Kathu,7.9178,98.3332,85.69,82,35,8.81,TH,scattered clouds
541,Hualmay,-11.0964,-77.6139,73.08,77,100,9.71,PE,overcast clouds
542,Vitim,59.4511,112.5578,-6.34,98,100,3.89,RU,overcast clouds
543,Rio Tercero,-32.173,-64.1141,89.46,37,0,9.37,AR,clear sky
544,Brae,60.3964,-1.353,39.11,96,100,14.97,GB,overcast clouds
545,Celestun,20.8667,-90.4,72.09,50,1,12.03,MX,clear sky
546,Yablonovo,50.8523,37.3574,30.06,95,100,13.4,RU,snow
547,Zeya,53.75,127.2667,-6.3,90,53,4.0,RU,broken clouds
548,Vajszlo,45.8596,17.9841,42.12,60,0,4.09,HU,clear sky
549,Rundu,-17.9333,19.7667,66.45,95,100,9.06,NA,light rain
550,Kedrovyy,56.1667,91.8167,-14.13,96,29,3.42,RU,scattered clouds
551,Mahebourg,-20.4081,57.7,79.09,94,75,12.66,MU,broken clouds
552,Aviles,43.5547,-5.9248,47.37,85,40,1.01,ES,scattered clouds
553,Srandakan,-7.9386,110.2506,62.73,89,100,4.94,ID,overcast clouds
554,Tsuruoka,38.7217,139.8217,29.61,75,100,22.64,JP,light snow
555,Marrakesh,31.6315,-8.0083,71.67,28,40,17.27,MA,scattered clouds
556,Terra Santa,-2.1042,-56.4869,82.35,72,100,2.91,BR,overcast clouds
557,Te Anau,-45.4167,167.7167,63.75,76,21,0.04,NZ,few clouds
558,San Vicente,-26.6167,-54.1333,82.2,43,41,5.23,AR,scattered clouds
559,Inverness,57.4791,-4.224,44.58,83,75,11.99,GB,broken clouds
560,Berlevag,70.8578,29.0864,30.2,93,100,14.97,NO,snow
561,Megion,61.0296,76.1136,5.02,95,100,9.35,RU,overcast clouds
562,Rio Branco Do Sul,-25.19,-49.3142,66.7,97,89,3.67,BR,overcast clouds
563,Kloulklubed,7.0419,134.2556,75.7,71,96,12.8,PW,overcast clouds
564,Vagur,61.4732,-6.8119,36.82,95,100,43.4,FO,overcast clouds
565,Honningsvag,70.9821,25.9704,31.75,69,0,20.71,NO,clear sky
566,Belmonte,-15.8631,-38.8828,81.1,79,9,11.59,BR,clear sky
567,Poum,-20.2333,164.0167,80.02,76,97,8.61,NC,overcast clouds
568,Encantado,-29.2361,-51.8697,85.05,38,80,1.95,BR,broken clouds
569,Ekibastuz,51.6667,75.3667,11.12,87,44,12.97,KZ,scattered clouds
570,Acarau,-2.8856,-40.12,77.31,84,100,9.31,BR,overcast clouds
571,Dire Dawa,9.5931,41.8661,64.44,50,34,2.48,ET,scattered clouds
572,Crixas,-14.5489,-49.9692,73.53,92,100,3.47,BR,light rain
573,Sanawad,22.1833,76.0667,63.07,28,3,2.28,IN,clear sky
574,Pandan,14.0453,124.1694,76.86,89,31,11.52,PH,light rain
575,Svetlogorsk,52.6333,29.7333,31.24,98,100,10.85,BY,snow
576,Zhezkazgan,47.8043,67.7144,16.3,96,100,4.61,KZ,light snow
577,Dezful,32.3811,48.4058,51.26,38,47,3.44,IR,scattered clouds
578,Druzhba,52.0428,33.9453,32.13,92,100,13.49,UA,overcast clouds
579,Harper,4.375,-7.7169,80.17,85,61,9.22,LR,broken clouds
580,Aykhal,66.0,111.5,-21.73,100,89,3.65,RU,overcast clouds
581,Kibala,9.1104,18.3463,76.95,27,0,9.22,TD,clear sky
582,Kerchevskiy,59.946,56.2884,0.37,99,94,2.42,RU,overcast clouds
583,Porto Novo,6.4965,2.6036,82.22,66,67,2.66,BJ,broken clouds
584,High Prairie,55.4334,-116.4858,28.58,88,28,2.66,CA,scattered clouds
585,Paka,4.6374,103.4368,73.33,94,62,2.3,MY,broken clouds
586,Sulina,45.1559,29.6536,35.65,75,5,11.72,RO,clear sky
587,Linxia,35.6003,103.2064,7.14,87,39,3.71,CN,scattered clouds
588,Ukiah,39.1502,-123.2078,66.43,42,0,0.0,US,clear sky
589,Domodossola,46.1165,8.2931,54.45,33,0,8.81,IT,clear sky
590,Mapiri,-15.25,-68.1667,77.25,76,73,2.73,BO,broken clouds
591,Yerbogachen,61.2767,108.0108,-17.88,100,91,3.13,RU,overcast clouds
592,Bealanana,-14.55,48.7333,63.43,97,88,2.37,MG,overcast clouds
593,Nanakuli,21.3906,-158.1547,78.75,58,20,13.8,US,few clouds
594,Bradford,53.7939,-1.7521,46.62,81,100,24.11,GB,light rain
595,Empalme,27.9667,-110.8167,79.36,53,75,13.8,MX,broken clouds
596,Pijijiapan,15.7011,-93.23,93.04,31,3,5.82,MX,clear sky
597,Tete,-16.1564,33.5867,77.09,78,40,4.61,MZ,scattered clouds
598,Mpika,-11.8343,31.4529,60.4,97,100,3.29,ZM,overcast clouds
599,Kamen-Rybolov,44.7481,132.0403,-3.78,93,20,2.89,RU,few clouds
600,Margate,51.3813,1.3862,44.31,78,100,5.01,GB,overcast clouds
601,Elko,41.0002,-115.5012,41.02,25,6,2.21,US,clear sky
602,Narsaq,60.9167,-46.05,23.22,67,100,12.91,GL,light snow
603,Usinsk,65.9939,57.5281,7.61,96,100,8.99,RU,overcast clouds
604,Longyan,25.1072,117.0225,37.76,93,41,3.96,CN,scattered clouds
605,Sompeta,18.9333,84.6,65.57,70,0,4.12,IN,clear sky
606,Puerto Quijarro,-17.7833,-57.7667,78.6,93,94,3.27,BO,overcast clouds
607,Angoche,-16.2325,39.9086,77.72,82,2,2.91,MZ,clear sky
608,Zhanakorgan,43.9098,67.2495,24.91,71,61,7.78,KZ,broken clouds
609,Aleksandrovskiy Zavod,50.9237,117.9374,-18.45,97,47,3.36,RU,scattered clouds
610,Solnechnyy,50.7214,136.6319,-11.15,98,87,3.15,RU,overcast clouds
611,Ust-Nera,64.5667,143.2,-12.41,100,100,1.66,RU,overcast clouds
612,Najran,17.4924,44.1277,61.45,29,19,2.1,SA,few clouds
613,Ararat,39.8317,44.7049,28.74,73,31,1.57,AM,scattered clouds
614,Omsukchan,62.5333,155.8,-15.81,100,100,5.53,RU,overcast clouds
615,Khudumelapye,-23.8833,24.75,69.21,80,100,12.86,BW,light rain
616,Dzaoudzi,-12.7887,45.2699,80.49,78,0,3.44,YT,clear sky
617,Wuda,39.4994,106.7117,11.23,40,0,3.67,CN,clear sky
618,Conde,-7.2597,-34.9075,81.86,78,20,10.36,BR,few clouds
619,Mae Hong Son,19.3003,97.9685,53.64,67,1,1.28,TH,clear sky
620,Pervomayskiy,53.2485,40.2871,22.14,95,100,13.82,RU,snow
621,Miri,4.4148,114.0089,75.34,100,40,5.75,MY,scattered clouds
622,Gunnedah,-30.9833,150.25,74.82,71,2,4.76,AU,clear sky
623,Olavarria,-36.8927,-60.3225,80.8,53,47,9.19,AR,scattered clouds
624,Kozhevnikovo,56.2589,83.9714,3.13,93,29,5.3,RU,scattered clouds
625,Marsaxlokk,35.8419,14.5431,57.07,82,40,18.41,MT,scattered clouds
626,Tocopilla,-22.092,-70.1979,69.66,65,1,5.64,CL,clear sky
627,Dhidhdhoo,6.8833,73.1,81.39,74,34,9.1,MV,scattered clouds
628,Igarka,67.4667,86.5833,-5.35,97,98,10.69,RU,overcast clouds
629,Mayo,38.8876,-76.5119,32.36,46,75,7.0,US,broken clouds
630,Ostersund,63.1792,14.6357,23.61,79,0,14.97,SE,clear sky
631,Dayong,25.0209,118.2898,51.89,81,0,3.53,CN,clear sky
632,Bingol,38.8847,40.4939,22.73,97,100,1.25,TR,light snow
633,Bosaso,11.2842,49.1816,73.98,71,93,3.15,SO,overcast clouds
634,Novikovo,51.1537,37.8879,29.46,93,100,13.04,RU,light snow
635,Viransehir,37.2353,39.7631,38.7,81,99,4.25,TR,overcast clouds
636,Jalu,29.0331,21.5482,54.79,58,64,15.88,LY,broken clouds
637,Jasper,37.2001,-94.3502,54.05,30,40,1.99,US,scattered clouds
638,Mushie,-3.0167,16.9,78.04,71,99,4.14,CD,overcast clouds
639,Urumqi,43.801,87.6005,-4.85,84,75,0.0,CN,mist
640,Vila,42.0304,-8.1588,41.94,49,0,2.62,PT,clear sky
641,Saint-Gaudens,43.0833,0.6667,43.14,88,1,3.29,FR,clear sky
642,Singkang,2.1006,102.7994,76.89,96,96,3.2,MY,overcast clouds
643,Fairlie,55.756,-4.8556,44.51,82,95,15.99,GB,overcast clouds
644,Padang,-0.9492,100.3543,75.25,89,100,3.85,ID,overcast clouds
645,Yenangyaung,20.4667,94.8833,57.87,59,0,2.19,MM,clear sky
646,Arrecife,28.963,-13.5477,66.18,39,0,8.05,ES,haze
647,Challans,46.8436,-1.8749,46.6,91,17,6.51,FR,few clouds
648,Millau,44.0833,2.9167,39.33,96,6,4.25,FR,clear sky
649,Marang,5.2056,103.2059,73.31,85,85,1.16,MY,overcast clouds
650,Boende,-0.2167,20.8667,82.76,26,100,1.12,CD,overcast clouds
651,Sao Lourenco Do Oeste,-26.3592,-52.8511,78.71,72,20,5.77,BR,few clouds
652,Costa Rica,-23.4167,-54.65,83.25,58,75,5.01,BR,broken clouds
653,Lakselv,70.0513,24.9718,6.62,92,0,2.3,NO,clear sky
654,Oum Hadjer,13.2954,19.6966,68.47,14,1,13.73,TD,clear sky
655,Palmer,42.1584,-72.3287,23.61,36,20,3.0,US,few clouds
656,Toamasina,-18.1667,49.3833,73.4,94,75,0.0,MG,broken clouds
657,Akyab,20.15,92.9,59.38,63,0,9.91,MM,clear sky
658,Atbasar,51.8,68.3333,13.78,94,99,13.35,KZ,overcast clouds
659,Moramanga,-18.9333,48.2,65.44,92,100,2.93,MG,overcast clouds
660,Grobina,56.5352,21.1678,33.58,80,20,13.8,LV,few clouds
661,Ancud,-41.8697,-73.8203,63.43,56,27,12.57,CL,scattered clouds
662,Soyo,-6.1349,12.3689,79.2,86,100,5.44,AO,light rain
663,Papara,-3.9839,-38.7273,81.68,80,100,3.02,BR,overcast clouds
664,Oudtshoorn,-33.5907,22.2014,66.56,77,85,3.22,ZA,overcast clouds
665,Namatanai,-3.6667,152.4333,79.79,80,100,3.44,PG,overcast clouds
666,Hay River,60.8156,-115.7999,-7.62,77,100,8.05,CA,light snow
667,Kilemary,56.7783,46.8659,15.53,98,98,4.21,RU,overcast clouds
668,Nemuro,43.3236,145.575,15.75,68,45,11.92,JP,scattered clouds
669,Seymchan,62.8833,152.4333,-22.02,96,87,4.09,RU,overcast clouds
670,Sakakah,29.9697,40.2064,53.17,43,100,13.2,SA,overcast clouds
671,Vila Velha,-20.3297,-40.2925,80.55,85,0,1.01,BR,clear sky
672,Rafai,4.95,23.9167,71.49,29,86,2.48,CF,overcast clouds
673,Sibolga,1.7427,98.7792,75.78,91,98,2.95,ID,overcast clouds
674,Camacha,33.0833,-16.3333,61.56,88,40,17.27,PT,scattered clouds
675,Carauari,-4.8828,-66.8958,83.62,71,96,3.74,BR,overcast clouds
676,Paso De Ovejas,19.2833,-96.4333,74.82,61,64,9.86,MX,broken clouds
677,Manado,1.487,124.8455,74.17,94,40,1.14,ID,scattered clouds
678,Castelnau-Le-Lez,43.6333,3.9,48.76,65,0,6.91,FR,clear sky
679,Alihe,50.5667,123.7167,-8.7,98,18,3.22,CN,few clouds
680,Nagato,34.3833,131.2,40.91,53,96,12.01,JP,overcast clouds
681,Langarud,37.197,50.1535,41.05,66,0,4.43,IR,clear sky
682,Xianyang,34.3378,108.7026,27.64,63,0,6.71,CN,clear sky
683,Evensk,61.95,159.2333,20.21,73,100,26.71,RU,overcast clouds
684,Maharajganj,27.1333,83.5667,52.47,77,0,4.16,IN,clear sky
685,Poso,-1.3959,120.7524,76.26,86,100,3.02,ID,overcast clouds
686,Ossora,59.2353,163.0719,31.06,88,100,20.07,RU,light snow
687,Venice,27.0998,-82.4543,61.05,39,0,14.97,US,clear sky
688,Russell,32.3502,-85.1999,63.68,31,0,13.8,US,clear sky
689,Makakilo City,21.3469,-158.0858,77.61,56,20,13.8,US,few clouds
690,Kargasok,59.0556,80.8572,7.88,94,100,8.75,RU,overcast clouds
691,Zaysan,47.4667,84.8667,3.27,89,100,2.55,KZ,overcast clouds
692,Tchamba,9.0333,1.4167,80.83,13,45,5.39,TG,scattered clouds
693,Oneonta,42.4529,-75.0638,20.3,52,100,6.53,US,overcast clouds
694,Riom,45.9167,2.9167,34.45,95,14,1.92,FR,few clouds
695,Seddon,-37.8068,144.8916,72.86,86,100,3.44,AU,overcast clouds
696,Luba,3.4568,8.5547,81.03,78,100,7.99,GQ,overcast clouds
697,Tarbes,43.25,0.1667,37.26,93,100,2.3,FR,fog
698,Tabas,33.5959,56.9244,45.45,28,0,3.15,IR,clear sky
699,Tamandare,-8.7597,-35.1047,80.08,79,99,9.17,BR,overcast clouds
700,Manakara,-22.1333,48.0167,72.64,81,9,1.07,MG,clear sky
